{
  "type": "FeatureCollection",
  "features": [
    {
      "type": "Feature",
      "properties": {
        "name": "Shanghai",
        "country_iso": "CHN",
        "teu_m": 49.2,
        "rank": 1
      },
      "geometry": {
        "type": "Point",
        "coordinates": [
          122.06,
          30.63
        ]
      }
    },
    {
      "type": "Feature",
      "properties": {
        "name": "Singapore",
        "country_iso": "SGP",
        "teu_m": 39.0,
        "rank": 2
      },
      "geometry": {
        "type": "Point",
        "coordinates": [
          103.84,
          1.26
        ]
      }
    },
    {
      "type": "Feature",
      "properties": {
        "name": "Ningbo-Zhoushan",
        "country_iso": "CHN",
        "teu_m": 35.3,
        "rank": 3
      },
      "geometry": {
        "type": "Point",
        "coordinates": [
          121.84,
          29.87
        ]
      }
    },
    {
      "type": "Feature",
      "properties": {
        "name": "Shenzhen",
        "country_iso": "CHN",
        "teu_m": 30.0,
        "rank": 4
      },
      "geometry": {
        "type": "Point",
        "coordinates": [
          113.92,
          22.48
        ]
      }
    },
    {
      "type": "Feature",
      "properties": {
        "name": "Qingdao",
        "country_iso": "CHN",
        "teu_m": 26.0,
        "rank": 5
      },
      "geometry": {
        "type": "Point",
        "coordinates": [
          120.27,
          36.0
        ]
      }
    },
    {
      "type": "Feature",
      "properties": {
        "name": "Guangzhou (Nansha)",
        "country_iso": "CHN",
        "teu_m": 25.4,
        "rank": 6
      },
      "geometry": {
        "type": "Point",
        "coordinates": [
          113.6,
          22.77
        ]
      }
    },
    {
      "type": "Feature",
      "properties": {
        "name": "Busan",
        "country_iso": "KOR",
        "teu_m": 23.0,
        "rank": 7
      },
      "geometry": {
        "type": "Point",
        "coordinates": [
          129.05,
          35.08
        ]
      }
    },
    {
      "type": "Feature",
      "properties": {
        "name": "Tianjin",
        "country_iso": "CHN",
        "teu_m": 22.5,
        "rank": 8
      },
      "geometry": {
        "type": "Point",
        "coordinates": [
          117.79,
          38.97
        ]
      }
    },
    {
      "type": "Feature",
      "properties": {
        "name": "Jebel Ali (Dubai)",
        "country_iso": "ARE",
        "teu_m": 14.5,
        "rank": 9
      },
      "geometry": {
        "type": "Point",
        "coordinates": [
          55.06,
          25.01
        ]
      }
    },
    {
      "type": "Feature",
      "properties": {
        "name": "Hong Kong",
        "country_iso": "CHN",
        "teu_m": 14.3,
        "rank": 10
      },
      "geometry": {
        "type": "Point",
        "coordinates": [
          114.13,
          22.32
        ]
      }
    },
    {
      "type": "Feature",
      "properties": {
        "name": "Port Klang",
        "country_iso": "MYS",
        "teu_m": 14.0,
        "rank": 11
      },
      "geometry": {
        "type": "Point",
        "coordinates": [
          101.39,
          2.99
        ]
      }
    },
    {
      "type": "Feature",
      "properties": {
        "name": "Rotterdam",
        "country_iso": "NLD",
        "teu_m": 13.8,
        "rank": 12
      },
      "geometry": {
        "type": "Point",
        "coordinates": [
          4.05,
          51.95
        ]
      }
    },
    {
      "type": "Feature",
      "properties": {
        "name": "Antwerp-Bruges",
        "country_iso": "BEL",
        "teu_m": 12.5,
        "rank": 13
      },
      "geometry": {
        "type": "Point",
        "coordinates": [
          4.3,
          51.28
        ]
      }
    },
    {
      "type": "Feature",
      "properties": {
        "name": "Xiamen",
        "country_iso": "CHN",
        "teu_m": 12.5,
        "rank": 14
      },
      "geometry": {
        "type": "Point",
        "coordinates": [
          118.07,
          24.45
        ]
      }
    },
    {
      "type": "Feature",
      "properties": {
        "name": "Tanjung Pelepas",
        "country_iso": "MYS",
        "teu_m": 10.5,
        "rank": 15
      },
      "geometry": {
        "type": "Point",
        "coordinates": [
          103.55,
          1.36
        ]
      }
    },
    {
      "type": "Feature",
      "properties": {
        "name": "Los Angeles",
        "country_iso": "USA",
        "teu_m": 9.9,
        "rank": 16
      },
      "geometry": {
        "type": "Point",
        "coordinates": [
          -118.26,
          33.73
        ]
      }
    },
    {
      "type": "Feature",
      "properties": {
        "name": "Long Beach",
        "country_iso": "USA",
        "teu_m": 9.6,
        "rank": 17
      },
      "geometry": {
        "type": "Point",
        "coordinates": [
          -118.21,
          33.75
        ]
      }
    },
    {
      "type": "Feature",
      "properties": {
        "name": "Kaohsiung",
        "country_iso": "TWN",
        "teu_m": 9.2,
        "rank": 18
      },
      "geometry": {
        "type": "Point",
        "coordinates": [
          120.28,
          22.6
        ]
      }
    },
    {
      "type": "Feature",
      "properties": {
        "name": "Tanger Med",
        "country_iso": "MAR",
        "teu_m": 8.6,
        "rank": 19
      },
      "geometry": {
        "type": "Point",
        "coordinates": [
          -5.5,
          35.88
        ]
      }
    },
    {
      "type": "Feature",
      "properties": {
        "name": "New York / New Jersey",
        "country_iso": "USA",
        "teu_m": 8.5,
        "rank": 20
      },
      "geometry": {
        "type": "Point",
        "coordinates": [
          -74.15,
          40.67
        ]
      }
    },
    {
      "type": "Feature",
      "properties": {
        "name": "Hamburg",
        "country_iso": "DEU",
        "teu_m": 8.0,
        "rank": 21
      },
      "geometry": {
        "type": "Point",
        "coordinates": [
          9.93,
          53.51
        ]
      }
    },
    {
      "type": "Feature",
      "properties": {
        "name": "Laem Chabang",
        "country_iso": "THA",
        "teu_m": 8.0,
        "rank": 22
      },
      "geometry": {
        "type": "Point",
        "coordinates": [
          100.89,
          13.08
        ]
      }
    },
    {
      "type": "Feature",
      "properties": {
        "name": "Ho Chi Minh City",
        "country_iso": "VNM",
        "teu_m": 7.9,
        "rank": 23
      },
      "geometry": {
        "type": "Point",
        "coordinates": [
          106.79,
          10.75
        ]
      }
    },
    {
      "type": "Feature",
      "properties": {
        "name": "Colombo",
        "country_iso": "LKA",
        "teu_m": 7.2,
        "rank": 24
      },
      "geometry": {
        "type": "Point",
        "coordinates": [
          79.85,
          6.95
        ]
      }
    },
    {
      "type": "Feature",
      "properties": {
        "name": "Mundra",
        "country_iso": "IND",
        "teu_m": 7.0,
        "rank": 25
      },
      "geometry": {
        "type": "Point",
        "coordinates": [
          69.7,
          22.74
        ]
      }
    },
    {
      "type": "Feature",
      "properties": {
        "name": "Piraeus",
        "country_iso": "GRC",
        "teu_m": 5.4,
        "rank": 26
      },
      "geometry": {
        "type": "Point",
        "coordinates": [
          23.62,
          37.94
        ]
      }
    }
  ]
}
